[
  {
    "name": "Grand Cafe Hollywood",
    "address": "2905 Stirling Rd, Fort Lauderdale, FL 33312",
    "city": "Fort Lauderdale",
    "state": "FL",
    "zip_code": "33312",
    "phone": null,
    "website": "http://www.grandcafe.us/",
    "cuisine_type": "Restaurant",
    "description": "Kosher restaurant certified by ORB",
    "image_url": "",
    "hechsher_details": "ORB Kosher",
    "is_kosher": true,
    "is_glatt": false,
    "is_cholov_yisroel": false,
    "is_pas_yisroel": false,
    "is_bishul_yisroel": false,
    "is_mehadrin": false,
    "is_hechsher": true,
    "rating": 4.0,
    "review_count": 0,
    "price_range": "$$",
    "hours": "Hours vary by location",
    "created_at": "2025-07-30T22:24:52.372442",
    "updated_at": "2025-07-30T22:24:52.372719"
  },
  {
    "name": "Yum Berry Cafe & Sushi Bar",
    "address": "4009 Oakwood Blvd, Hollywood, FL 33020",
    "city": "Hollywood",
    "state": "FL",
    "zip_code": "33020",
    "phone": null,
    "website": "http://kosherrestauranthollywoodfl.com/",
    "cuisine_type": "Restaurant",
    "description": "Kosher restaurant certified by ORB",
    "image_url": "",
    "hechsher_details": "ORB Kosher",
    "is_kosher": true,
    "is_glatt": false,
    "is_cholov_yisroel": false,
    "is_pas_yisroel": false,
    "is_bishul_yisroel": false,
    "is_mehadrin": false,
    "is_hechsher": true,
    "rating": 4.0,
    "review_count": 0,
    "price_range": "$$",
    "hours": "Hours vary by location",
    "created_at": "2025-07-30T22:24:52.372866",
    "updated_at": "2025-07-30T22:24:52.372868"
  },
  {
    "name": "Mizrachi's Pizza in Hollywood",
    "address": "5650 Stirling Rd, Hollywood, FL 33021",
    "city": "Hollywood",
    "state": "FL",
    "zip_code": "33021",
    "phone": null,
    "website": "http://www.mizrachispizzakitchen.com/",
    "cuisine_type": "Restaurant",
    "description": "Kosher restaurant certified by ORB",
    "image_url": "",
    "hechsher_details": "ORB Kosher",
    "is_kosher": true,
    "is_glatt": false,
    "is_cholov_yisroel": false,
    "is_pas_yisroel": false,
    "is_bishul_yisroel": false,
    "is_mehadrin": false,
    "is_hechsher": true,
    "rating": 4.0,
    "review_count": 0,
    "price_range": "$$",
    "hours": "Hours vary by location",
    "created_at": "2025-07-30T22:24:52.372938",
    "updated_at": "2025-07-30T22:24:52.372940"
  },
  {
    "name": "Cafe 95 at JARC",
    "address": "21160 95th Ave South, Boca 33428",
    "city": "",
    "state": "",
    "zip_code": "",
    "phone": null,
    "website": "https://www.dkja.net/",
    "cuisine_type": "Restaurant",
    "description": "Kosher restaurant certified by ORB",
    "image_url": "",
    "hechsher_details": "ORB Kosher",
    "is_kosher": true,
    "is_glatt": false,
    "is_cholov_yisroel": false,
    "is_pas_yisroel": false,
    "is_bishul_yisroel": false,
    "is_mehadrin": false,
    "is_hechsher": true,
    "rating": 4.0,
    "review_count": 0,
    "price_range": "$$",
    "hours": "Hours vary by location",
    "created_at": "2025-07-30T22:24:52.373001",
    "updated_at": "2025-07-30T22:24:52.373003"
  },
  {
    "name": "Hollywood Deli",
    "address": "6100 Hollywood Blvd, Hollywood FL 33024",
    "city": "Hollywood",
    "state": "",
    "zip_code": "",
    "phone": null,
    "website": "https://www.clover.com/online-ordering/hollywood-deli-inc-hollywood",
    "cuisine_type": "Restaurant",
    "description": "Kosher restaurant certified by ORB",
    "image_url": "",
    "hechsher_details": "ORB Kosher",
    "is_kosher": true,
    "is_glatt": false,
    "is_cholov_yisroel": false,
    "is_pas_yisroel": false,
    "is_bishul_yisroel": false,
    "is_mehadrin": false,
    "is_hechsher": true,
    "rating": 4.0,
    "review_count": 0,
    "price_range": "$$",
    "hours": "Hours vary by location",
    "created_at": "2025-07-30T22:24:52.373117",
    "updated_at": "2025-07-30T22:24:52.373121"
  },
  {
    "name": "Jon\u2019s Place",
    "address": "22191 Powerline Rd, Boca Raton, FL 33434",
    "city": "Boca Raton",
    "state": "FL",
    "zip_code": "33434",
    "phone": null,
    "website": "https://www.facebook.com/pg/Jons-Place-301563877688/about/?ref=page_internal",
    "cuisine_type": "Restaurant",
    "description": "Kosher restaurant certified by ORB",
    "image_url": "",
    "hechsher_details": "ORB Kosher",
    "is_kosher": true,
    "is_glatt": false,
    "is_cholov_yisroel": false,
    "is_pas_yisroel": false,
    "is_bishul_yisroel": false,
    "is_mehadrin": false,
    "is_hechsher": true,
    "rating": 4.0,
    "review_count": 0,
    "price_range": "$$",
    "hours": "Hours vary by location",
    "created_at": "2025-07-30T22:24:52.373197",
    "updated_at": "2025-07-30T22:24:52.373200"
  },
  {
    "name": "Lox N Bagel (Bagel Factory Cafe)",
    "address": "21065 Powerline Road, Ste A-6, Boca Raton, FL 33487",
    "city": "",
    "state": "",
    "zip_code": "",
    "phone": null,
    "website": "http://kosherloxnbagel.com",
    "cuisine_type": "Restaurant",
    "description": "Kosher restaurant certified by ORB",
    "image_url": "",
    "hechsher_details": "ORB Kosher",
    "is_kosher": true,
    "is_glatt": false,
    "is_cholov_yisroel": false,
    "is_pas_yisroel": false,
    "is_bishul_yisroel": false,
    "is_mehadrin": false,
    "is_hechsher": true,
    "rating": 4.0,
    "review_count": 0,
    "price_range": "$$",
    "hours": "Hours vary by location",
    "created_at": "2025-07-30T22:24:52.373271",
    "updated_at": "2025-07-30T22:24:52.373273"
  },
  {
    "name": "Kosher Bagel Cove",
    "address": "668 W Hallandale Beach Blvd, Hallandale Beach, FL 33009",
    "city": "Hallandale Beach",
    "state": "FL",
    "zip_code": "33009",
    "phone": null,
    "website": "https://www.kosherbagelcove.com/",
    "cuisine_type": "Restaurant",
    "description": "Kosher restaurant certified by ORB",
    "image_url": "",
    "hechsher_details": "ORB Kosher",
    "is_kosher": true,
    "is_glatt": false,
    "is_cholov_yisroel": false,
    "is_pas_yisroel": false,
    "is_bishul_yisroel": false,
    "is_mehadrin": false,
    "is_hechsher": true,
    "rating": 4.0,
    "review_count": 0,
    "price_range": "$$",
    "hours": "Hours vary by location",
    "created_at": "2025-07-30T22:24:52.373340",
    "updated_at": "2025-07-30T22:24:52.373342"
  },
  {
    "name": "Cafe Noir",
    "address": "3000 Stirling Rd, Unit 112 Hollywood, FL 33021",
    "city": "Hollywood",
    "state": "FL",
    "zip_code": "33021",
    "phone": null,
    "website": "https://cafenoirhollywood.com/",
    "cuisine_type": "Restaurant",
    "description": "Kosher restaurant certified by ORB",
    "image_url": "",
    "hechsher_details": "ORB Kosher",
    "is_kosher": true,
    "is_glatt": false,
    "is_cholov_yisroel": false,
    "is_pas_yisroel": false,
    "is_bishul_yisroel": false,
    "is_mehadrin": false,
    "is_hechsher": true,
    "rating": 4.0,
    "review_count": 0,
    "price_range": "$$",
    "hours": "Hours vary by location",
    "created_at": "2025-07-30T22:24:52.373404",
    "updated_at": "2025-07-30T22:24:52.373406"
  },
  {
    "name": "Sobol Boca Raton",
    "address": "9224 Glades Rd, Boca Raton, FL 33434",
    "city": "Boca Raton",
    "state": "FL",
    "zip_code": "33434",
    "phone": null,
    "website": "https://mysobol.com/locations/sobol-boca/",
    "cuisine_type": "Restaurant",
    "description": "Kosher restaurant certified by ORB",
    "image_url": "",
    "hechsher_details": "ORB Kosher",
    "is_kosher": true,
    "is_glatt": false,
    "is_cholov_yisroel": false,
    "is_pas_yisroel": false,
    "is_bishul_yisroel": false,
    "is_mehadrin": false,
    "is_hechsher": true,
    "rating": 4.0,
    "review_count": 0,
    "price_range": "$$",
    "hours": "Hours vary by location",
    "created_at": "2025-07-30T22:24:52.373460",
    "updated_at": "2025-07-30T22:24:52.373461"
  },
  {
    "name": "Carmela's Boca",
    "address": "7300 W Camino Real, Boca Raton, FL 33433",
    "city": "Boca Raton",
    "state": "FL",
    "zip_code": "33433",
    "phone": null,
    "website": "https://www.carmelasboca.com/",
    "cuisine_type": "Restaurant",
    "description": "Kosher restaurant certified by ORB",
    "image_url": "",
    "hechsher_details": "ORB Kosher",
    "is_kosher": true,
    "is_glatt": false,
    "is_cholov_yisroel": false,
    "is_pas_yisroel": false,
    "is_bishul_yisroel": false,
    "is_mehadrin": false,
    "is_hechsher": true,
    "rating": 4.0,
    "review_count": 0,
    "price_range": "$$",
    "hours": "Hours vary by location",
    "created_at": "2025-07-30T22:24:52.373521",
    "updated_at": "2025-07-30T22:24:52.373523"
  },
  {
    "name": "Ariel\u2019s Delicious Pizza",
    "address": "3330 Griffin Rd, Fort Lauderdale, FL 33312",
    "city": "Fort Lauderdale",
    "state": "FL",
    "zip_code": "33312",
    "phone": null,
    "website": "",
    "cuisine_type": "Restaurant",
    "description": "Kosher restaurant certified by ORB",
    "image_url": "",
    "hechsher_details": "ORB Kosher",
    "is_kosher": true,
    "is_glatt": false,
    "is_cholov_yisroel": false,
    "is_pas_yisroel": false,
    "is_bishul_yisroel": false,
    "is_mehadrin": false,
    "is_hechsher": true,
    "rating": 4.0,
    "review_count": 0,
    "price_range": "$$",
    "hours": "Hours vary by location",
    "created_at": "2025-07-30T22:24:52.373580",
    "updated_at": "2025-07-30T22:24:52.373581"
  },
  {
    "name": "Sobol Boynton Beach",
    "address": "6691 W Boynton Beach Blvd, Boynton Beach, FL 33437",
    "city": "Boynton Beach",
    "state": "FL",
    "zip_code": "33437",
    "phone": null,
    "website": "http://mysobol.com",
    "cuisine_type": "Restaurant",
    "description": "Kosher restaurant certified by ORB",
    "image_url": "",
    "hechsher_details": "ORB Kosher",
    "is_kosher": true,
    "is_glatt": false,
    "is_cholov_yisroel": false,
    "is_pas_yisroel": false,
    "is_bishul_yisroel": false,
    "is_mehadrin": false,
    "is_hechsher": true,
    "rating": 4.0,
    "review_count": 0,
    "price_range": "$$",
    "hours": "Hours vary by location",
    "created_at": "2025-07-30T22:24:52.373639",
    "updated_at": "2025-07-30T22:24:52.373641"
  },
  {
    "name": "Lenny's Pizza (Boca)",
    "address": "9070 Kimberly Blvd, STE 26, Boca Raton, FL 33434",
    "city": "",
    "state": "",
    "zip_code": "",
    "phone": null,
    "website": "",
    "cuisine_type": "Restaurant",
    "description": "Kosher restaurant certified by ORB",
    "image_url": "",
    "hechsher_details": "ORB Kosher",
    "is_kosher": true,
    "is_glatt": false,
    "is_cholov_yisroel": false,
    "is_pas_yisroel": false,
    "is_bishul_yisroel": false,
    "is_mehadrin": false,
    "is_hechsher": true,
    "rating": 4.0,
    "review_count": 0,
    "price_range": "$$",
    "hours": "Hours vary by location",
    "created_at": "2025-07-30T22:24:52.373696",
    "updated_at": "2025-07-30T22:24:52.373698"
  },
  {
    "name": "Mozart Cafe Sunny Isles Inc",
    "address": "18110 Collins Ave, Sunny Isles Beach, FL 33160",
    "city": "Sunny Isles Beach",
    "state": "FL",
    "zip_code": "33160",
    "phone": null,
    "website": "http://www.mozartcafeusa.com",
    "cuisine_type": "Restaurant",
    "description": "Kosher restaurant certified by ORB",
    "image_url": "",
    "hechsher_details": "ORB Kosher",
    "is_kosher": true,
    "is_glatt": false,
    "is_cholov_yisroel": false,
    "is_pas_yisroel": false,
    "is_bishul_yisroel": false,
    "is_mehadrin": false,
    "is_hechsher": true,
    "rating": 4.0,
    "review_count": 0,
    "price_range": "$$",
    "hours": "Hours vary by location",
    "created_at": "2025-07-30T22:24:52.373751",
    "updated_at": "2025-07-30T22:24:52.373753"
  },
  {
    "name": "Zuka Miami",
    "address": "900 N Federal Highway, Hollywood, FL 33020",
    "city": "Hollywood",
    "state": "FL",
    "zip_code": "33020",
    "phone": null,
    "website": "",
    "cuisine_type": "Restaurant",
    "description": "Kosher restaurant certified by ORB",
    "image_url": "",
    "hechsher_details": "ORB Kosher",
    "is_kosher": true,
    "is_glatt": false,
    "is_cholov_yisroel": false,
    "is_pas_yisroel": false,
    "is_bishul_yisroel": false,
    "is_mehadrin": false,
    "is_hechsher": true,
    "rating": 4.0,
    "review_count": 0,
    "price_range": "$$",
    "hours": "Hours vary by location",
    "created_at": "2025-07-30T22:24:52.373811",
    "updated_at": "2025-07-30T22:24:52.373813"
  },
  {
    "name": "Grand Cafe Aventura",
    "address": "2491 NE 186th St, Miami, FL 33180",
    "city": "Miami",
    "state": "FL",
    "zip_code": "33180",
    "phone": null,
    "website": "",
    "cuisine_type": "Restaurant",
    "description": "Kosher restaurant certified by ORB",
    "image_url": "",
    "hechsher_details": "ORB Kosher",
    "is_kosher": true,
    "is_glatt": false,
    "is_cholov_yisroel": false,
    "is_pas_yisroel": false,
    "is_bishul_yisroel": false,
    "is_mehadrin": false,
    "is_hechsher": true,
    "rating": 4.0,
    "review_count": 0,
    "price_range": "$$",
    "hours": "Hours vary by location",
    "created_at": "2025-07-30T22:24:52.373865",
    "updated_at": "2025-07-30T22:24:52.373867"
  },
  {
    "name": "La Vita \u00e9 Bella",
    "address": "9485 Harding Ave, Surfside, FL 33154",
    "city": "Surfside",
    "state": "FL",
    "zip_code": "33154",
    "phone": null,
    "website": "http://www.lavitaebella.com",
    "cuisine_type": "Restaurant",
    "description": "Kosher restaurant certified by ORB",
    "image_url": "",
    "hechsher_details": "ORB Kosher",
    "is_kosher": true,
    "is_glatt": false,
    "is_cholov_yisroel": false,
    "is_pas_yisroel": false,
    "is_bishul_yisroel": false,
    "is_mehadrin": false,
    "is_hechsher": true,
    "rating": 4.0,
    "review_count": 0,
    "price_range": "$$",
    "hours": "Hours vary by location",
    "created_at": "2025-07-30T22:24:52.373926",
    "updated_at": "2025-07-30T22:24:52.373928"
  },
  {
    "name": "The Cafe Maison la Fleur & Dunwell Pizza",
    "address": "2906 NE 207th St, Aventura, FL 33180",
    "city": "Aventura",
    "state": "FL",
    "zip_code": "33180",
    "phone": null,
    "website": "http://Www.maisonlafleur.com",
    "cuisine_type": "Restaurant",
    "description": "Kosher restaurant certified by ORB",
    "image_url": "",
    "hechsher_details": "ORB Kosher",
    "is_kosher": true,
    "is_glatt": false,
    "is_cholov_yisroel": false,
    "is_pas_yisroel": false,
    "is_bishul_yisroel": false,
    "is_mehadrin": false,
    "is_hechsher": true,
    "rating": 4.0,
    "review_count": 0,
    "price_range": "$$",
    "hours": "Hours vary by location",
    "created_at": "2025-07-30T22:24:52.373980",
    "updated_at": "2025-07-30T22:24:52.373982"
  },
  {
    "name": "Gifted Crust Pizza",
    "address": "9523 Harding Ave, Surfside, FL 33154",
    "city": "Surfside",
    "state": "FL",
    "zip_code": "33154",
    "phone": null,
    "website": "",
    "cuisine_type": "Restaurant",
    "description": "Kosher restaurant certified by ORB",
    "image_url": "",
    "hechsher_details": "ORB Kosher",
    "is_kosher": true,
    "is_glatt": false,
    "is_cholov_yisroel": false,
    "is_pas_yisroel": false,
    "is_bishul_yisroel": false,
    "is_mehadrin": false,
    "is_hechsher": true,
    "rating": 4.0,
    "review_count": 0,
    "price_range": "$$",
    "hours": "Hours vary by location",
    "created_at": "2025-07-30T22:24:52.374037",
    "updated_at": "2025-07-30T22:24:52.374039"
  },
  {
    "name": "Joe's Pizza",
    "address": "3288 Stirling Rd, Hollywood, FL 33021",
    "city": "Hollywood",
    "state": "FL",
    "zip_code": "33021",
    "phone": null,
    "website": "",
    "cuisine_type": "Restaurant",
    "description": "Kosher restaurant certified by ORB",
    "image_url": "",
    "hechsher_details": "ORB Kosher",
    "is_kosher": true,
    "is_glatt": false,
    "is_cholov_yisroel": false,
    "is_pas_yisroel": false,
    "is_bishul_yisroel": false,
    "is_mehadrin": false,
    "is_hechsher": true,
    "rating": 4.0,
    "review_count": 0,
    "price_range": "$$",
    "hours": "Hours vary by location",
    "created_at": "2025-07-30T22:24:52.374092",
    "updated_at": "2025-07-30T22:24:52.374094"
  },
  {
    "name": "Bagel Boss Aventura (NMB)",
    "address": "18549 W Dixie Hwy, Aventura, FL 33180",
    "city": "Aventura",
    "state": "FL",
    "zip_code": "33180",
    "phone": null,
    "website": "http://Www.bagelboss.com",
    "cuisine_type": "Restaurant",
    "description": "Kosher restaurant certified by ORB",
    "image_url": "",
    "hechsher_details": "ORB Kosher",
    "is_kosher": true,
    "is_glatt": false,
    "is_cholov_yisroel": false,
    "is_pas_yisroel": false,
    "is_bishul_yisroel": false,
    "is_mehadrin": false,
    "is_hechsher": true,
    "rating": 4.0,
    "review_count": 0,
    "price_range": "$$",
    "hours": "Hours vary by location",
    "created_at": "2025-07-30T22:24:52.374171",
    "updated_at": "2025-07-30T22:24:52.374175"
  },
  {
    "name": "Mizrachi's Pizza Kitchen in KC Boynton Beach",
    "address": "3775 Woolbright Rd, Boynton Beach, FL 33436",
    "city": "Boynton Beach",
    "state": "FL",
    "zip_code": "33436",
    "phone": null,
    "website": "",
    "cuisine_type": "Restaurant",
    "description": "Kosher restaurant certified by ORB",
    "image_url": "",
    "hechsher_details": "ORB Kosher",
    "is_kosher": true,
    "is_glatt": false,
    "is_cholov_yisroel": false,
    "is_pas_yisroel": false,
    "is_bishul_yisroel": false,
    "is_mehadrin": false,
    "is_hechsher": true,
    "rating": 4.0,
    "review_count": 0,
    "price_range": "$$",
    "hours": "Hours vary by location",
    "created_at": "2025-07-30T22:24:52.374409",
    "updated_at": "2025-07-30T22:24:52.374415"
  },
  {
    "name": "Yummy Pizza",
    "address": "730 W Hallandale Beach Blvd, Hallandale Beach, FL 33009",
    "city": "Hallandale Beach",
    "state": "FL",
    "zip_code": "33009",
    "phone": null,
    "website": "http://A",
    "cuisine_type": "Restaurant",
    "description": "Kosher restaurant certified by ORB",
    "image_url": "",
    "hechsher_details": "ORB Kosher",
    "is_kosher": true,
    "is_glatt": false,
    "is_cholov_yisroel": false,
    "is_pas_yisroel": false,
    "is_bishul_yisroel": false,
    "is_mehadrin": false,
    "is_hechsher": true,
    "rating": 4.0,
    "review_count": 0,
    "price_range": "$$",
    "hours": "Hours vary by location",
    "created_at": "2025-07-30T22:24:52.374532",
    "updated_at": "2025-07-30T22:24:52.374536"
  },
  {
    "name": "Rita's (in KC Market)",
    "address": "5650 Stirling Rd, Hollywood, FL 33021",
    "city": "Hollywood",
    "state": "FL",
    "zip_code": "33021",
    "phone": null,
    "website": "https://www.ritasice.com/location/ritas-of-hollywood-fl/",
    "cuisine_type": "Restaurant",
    "description": "Kosher restaurant certified by ORB",
    "image_url": "",
    "hechsher_details": "ORB Kosher",
    "is_kosher": true,
    "is_glatt": false,
    "is_cholov_yisroel": false,
    "is_pas_yisroel": false,
    "is_bishul_yisroel": false,
    "is_mehadrin": false,
    "is_hechsher": true,
    "rating": 4.0,
    "review_count": 0,
    "price_range": "$$",
    "hours": "Hours vary by location",
    "created_at": "2025-07-30T22:24:52.374606",
    "updated_at": "2025-07-30T22:24:52.374608"
  },
  {
    "name": "Oasis Pizzeria & Bakery",
    "address": "5810 S University Dr #104, Davie, FL 33328",
    "city": "Davie",
    "state": "FL",
    "zip_code": "33328",
    "phone": null,
    "website": "",
    "cuisine_type": "Restaurant",
    "description": "Kosher restaurant certified by ORB",
    "image_url": "",
    "hechsher_details": "ORB Kosher",
    "is_kosher": true,
    "is_glatt": false,
    "is_cholov_yisroel": false,
    "is_pas_yisroel": false,
    "is_bishul_yisroel": false,
    "is_mehadrin": false,
    "is_hechsher": true,
    "rating": 4.0,
    "review_count": 0,
    "price_range": "$$",
    "hours": "Hours vary by location",
    "created_at": "2025-07-30T22:24:52.374723",
    "updated_at": "2025-07-30T22:24:52.374726"
  },
  {
    "name": "Hollywood Sara's Pizza",
    "address": "3944 N 46th Ave, Hollywood, FL 33021",
    "city": "Hollywood",
    "state": "FL",
    "zip_code": "33021",
    "phone": null,
    "website": "http://WWW.HOLLYWOODSARAS.COM",
    "cuisine_type": "Restaurant",
    "description": "Kosher restaurant certified by ORB",
    "image_url": "",
    "hechsher_details": "ORB Kosher",
    "is_kosher": true,
    "is_glatt": false,
    "is_cholov_yisroel": false,
    "is_pas_yisroel": false,
    "is_bishul_yisroel": false,
    "is_mehadrin": false,
    "is_hechsher": true,
    "rating": 4.0,
    "review_count": 0,
    "price_range": "$$",
    "hours": "Hours vary by location",
    "created_at": "2025-07-30T22:24:52.374847",
    "updated_at": "2025-07-30T22:24:52.374850"
  },
  {
    "name": "Mizrachi's Pizza in KC Hallandale",
    "address": "1002 E Hallandale Beach Blvd, Hallandale Beach, FL 33009",
    "city": "Hallandale Beach",
    "state": "FL",
    "zip_code": "33009",
    "phone": null,
    "website": "",
    "cuisine_type": "Restaurant",
    "description": "Kosher restaurant certified by ORB",
    "image_url": "",
    "hechsher_details": "ORB Kosher",
    "is_kosher": true,
    "is_glatt": false,
    "is_cholov_yisroel": false,
    "is_pas_yisroel": false,
    "is_bishul_yisroel": false,
    "is_mehadrin": false,
    "is_hechsher": true,
    "rating": 4.0,
    "review_count": 0,
    "price_range": "$$",
    "hours": "Hours vary by location",
    "created_at": "2025-07-30T22:24:52.374920",
    "updated_at": "2025-07-30T22:24:52.374921"
  },
  {
    "name": "A La Carte",
    "address": "613 W Hallandale Beach Blvd #7, Hallandale Beach, FL 33009",
    "city": "Hallandale Beach",
    "state": "FL",
    "zip_code": "33009",
    "phone": null,
    "website": "",
    "cuisine_type": "Restaurant",
    "description": "Kosher restaurant certified by ORB",
    "image_url": "",
    "hechsher_details": "ORB Kosher",
    "is_kosher": true,
    "is_glatt": false,
    "is_cholov_yisroel": false,
    "is_pas_yisroel": false,
    "is_bishul_yisroel": false,
    "is_mehadrin": false,
    "is_hechsher": true,
    "rating": 4.0,
    "review_count": 0,
    "price_range": "$$",
    "hours": "Hours vary by location",
    "created_at": "2025-07-30T22:24:52.374974",
    "updated_at": "2025-07-30T22:24:52.374976"
  },
  {
    "name": "Toast 770 (Inside Mobile Gas Station)",
    "address": "3991 Stirling Rd, Fort Lauderdale, FL 33312",
    "city": "Fort Lauderdale",
    "state": "FL",
    "zip_code": "33312",
    "phone": null,
    "website": "",
    "cuisine_type": "Restaurant",
    "description": "Kosher restaurant certified by ORB",
    "image_url": "",
    "hechsher_details": "ORB Kosher",
    "is_kosher": true,
    "is_glatt": false,
    "is_cholov_yisroel": false,
    "is_pas_yisroel": false,
    "is_bishul_yisroel": false,
    "is_mehadrin": false,
    "is_hechsher": true,
    "rating": 4.0,
    "review_count": 0,
    "price_range": "$$",
    "hours": "Hours vary by location",
    "created_at": "2025-07-30T22:24:52.375031",
    "updated_at": "2025-07-30T22:24:52.375032"
  },
  {
    "name": "Gifted Pizza (Food Truck)",
    "address": "96th St & The Beach, Surfside, FL 33155",
    "city": "Surfside",
    "state": "FL",
    "zip_code": "33155",
    "phone": null,
    "website": "",
    "cuisine_type": "Restaurant",
    "description": "Kosher restaurant certified by ORB",
    "image_url": "",
    "hechsher_details": "ORB Kosher",
    "is_kosher": true,
    "is_glatt": false,
    "is_cholov_yisroel": false,
    "is_pas_yisroel": false,
    "is_bishul_yisroel": false,
    "is_mehadrin": false,
    "is_hechsher": true,
    "rating": 4.0,
    "review_count": 0,
    "price_range": "$$",
    "hours": "Hours vary by location",
    "created_at": "2025-07-30T22:24:52.375090",
    "updated_at": "2025-07-30T22:24:52.375091"
  },
  {
    "name": "Bagel Boss (Surfside)",
    "address": "9543 Harding Ave, Surfside, FL 33154",
    "city": "Surfside",
    "state": "FL",
    "zip_code": "33154",
    "phone": null,
    "website": "",
    "cuisine_type": "Restaurant",
    "description": "Kosher restaurant certified by ORB",
    "image_url": "",
    "hechsher_details": "ORB Kosher",
    "is_kosher": true,
    "is_glatt": false,
    "is_cholov_yisroel": false,
    "is_pas_yisroel": false,
    "is_bishul_yisroel": false,
    "is_mehadrin": false,
    "is_hechsher": true,
    "rating": 4.0,
    "review_count": 0,
    "price_range": "$$",
    "hours": "Hours vary by location",
    "created_at": "2025-07-30T22:24:52.375143",
    "updated_at": "2025-07-30T22:24:52.375145"
  },
  {
    "name": "Bagel Boss Boca Raton",
    "address": "22107 Powerline Rd, Boca Raton, FL, 33433",
    "city": "Boca Raton",
    "state": "FL",
    "zip_code": "",
    "phone": null,
    "website": "",
    "cuisine_type": "Restaurant",
    "description": "Kosher restaurant certified by ORB",
    "image_url": "",
    "hechsher_details": "ORB Kosher",
    "is_kosher": true,
    "is_glatt": false,
    "is_cholov_yisroel": false,
    "is_pas_yisroel": false,
    "is_bishul_yisroel": false,
    "is_mehadrin": false,
    "is_hechsher": true,
    "rating": 4.0,
    "review_count": 0,
    "price_range": "$$",
    "hours": "Hours vary by location",
    "created_at": "2025-07-30T22:24:52.375203",
    "updated_at": "2025-07-30T22:24:52.375205"
  },
  {
    "name": "BOUTIQUE CAFE",
    "address": "3558 N Ocean Blvd, Fort Lauderdale, FL 33308",
    "city": "Fort Lauderdale",
    "state": "FL",
    "zip_code": "33308",
    "phone": null,
    "website": "",
    "cuisine_type": "Restaurant",
    "description": "Kosher restaurant certified by ORB",
    "image_url": "",
    "hechsher_details": "ORB Kosher",
    "is_kosher": true,
    "is_glatt": false,
    "is_cholov_yisroel": false,
    "is_pas_yisroel": false,
    "is_bishul_yisroel": false,
    "is_mehadrin": false,
    "is_hechsher": true,
    "rating": 4.0,
    "review_count": 0,
    "price_range": "$$",
    "hours": "Hours vary by location",
    "created_at": "2025-07-30T22:24:52.375262",
    "updated_at": "2025-07-30T22:24:52.375263"
  },
  {
    "name": "Pita Xpress",
    "address": "2445 Stirling Rd, Dania Beach, FL 33312",
    "city": "Dania Beach",
    "state": "FL",
    "zip_code": "33312",
    "phone": null,
    "website": "https://www.pitaxpressfl.com/",
    "cuisine_type": "Restaurant",
    "description": "Kosher restaurant certified by ORB",
    "image_url": "",
    "hechsher_details": "ORB Kosher",
    "is_kosher": true,
    "is_glatt": false,
    "is_cholov_yisroel": false,
    "is_pas_yisroel": false,
    "is_bishul_yisroel": false,
    "is_mehadrin": false,
    "is_hechsher": true,
    "rating": 4.0,
    "review_count": 0,
    "price_range": "$$",
    "hours": "Hours vary by location",
    "created_at": "2025-07-30T22:24:52.375323",
    "updated_at": "2025-07-30T22:24:52.375324"
  },
  {
    "name": "Boca Grill",
    "address": "8903 Glades Rd, Suite G-9, Boca Raton, FL 33434",
    "city": "",
    "state": "",
    "zip_code": "",
    "phone": null,
    "website": "http://www.kosherbocagrill.com",
    "cuisine_type": "Restaurant",
    "description": "Kosher restaurant certified by ORB",
    "image_url": "",
    "hechsher_details": "ORB Kosher",
    "is_kosher": true,
    "is_glatt": false,
    "is_cholov_yisroel": false,
    "is_pas_yisroel": false,
    "is_bishul_yisroel": false,
    "is_mehadrin": false,
    "is_hechsher": true,
    "rating": 4.0,
    "review_count": 0,
    "price_range": "$$",
    "hours": "Hours vary by location",
    "created_at": "2025-07-30T22:24:52.375382",
    "updated_at": "2025-07-30T22:24:52.375383"
  },
  {
    "name": "Shalom Haifa",
    "address": "18533 W Dixie Hwy, Aventura, FL 33180",
    "city": "Aventura",
    "state": "FL",
    "zip_code": "33180",
    "phone": null,
    "website": "https://shalomhaifakosherrestaurant.com/",
    "cuisine_type": "Restaurant",
    "description": "Kosher restaurant certified by ORB",
    "image_url": "",
    "hechsher_details": "ORB Kosher",
    "is_kosher": true,
    "is_glatt": false,
    "is_cholov_yisroel": false,
    "is_pas_yisroel": false,
    "is_bishul_yisroel": false,
    "is_mehadrin": false,
    "is_hechsher": true,
    "rating": 4.0,
    "review_count": 0,
    "price_range": "$$",
    "hours": "Hours vary by location",
    "created_at": "2025-07-30T22:24:52.375445",
    "updated_at": "2025-07-30T22:24:52.375446"
  },
  {
    "name": "Nava's Kosher Kitchen - Restaurant",
    "address": "5021 S State Road 7, Davie, FL 33314",
    "city": "Davie",
    "state": "FL",
    "zip_code": "33314",
    "phone": null,
    "website": "https://www.facebook.com/Navas-Kosher-Kitchen-170008686534908/",
    "cuisine_type": "Restaurant",
    "description": "Kosher restaurant certified by ORB",
    "image_url": "",
    "hechsher_details": "ORB Kosher",
    "is_kosher": true,
    "is_glatt": false,
    "is_cholov_yisroel": false,
    "is_pas_yisroel": false,
    "is_bishul_yisroel": false,
    "is_mehadrin": false,
    "is_hechsher": true,
    "rating": 4.0,
    "review_count": 0,
    "price_range": "$$",
    "hours": "Hours vary by location",
    "created_at": "2025-07-30T22:24:52.375503",
    "updated_at": "2025-07-30T22:24:52.375505"
  },
  {
    "name": "Century Grill",
    "address": "9060 Kimberly Blvd, Boca Raton, FL 33433",
    "city": "Boca Raton",
    "state": "FL",
    "zip_code": "33433",
    "phone": null,
    "website": "https://centurygrillboca.wixsite.com/cgboca",
    "cuisine_type": "Restaurant",
    "description": "Kosher restaurant certified by ORB",
    "image_url": "",
    "hechsher_details": "ORB Kosher",
    "is_kosher": true,
    "is_glatt": false,
    "is_cholov_yisroel": false,
    "is_pas_yisroel": false,
    "is_bishul_yisroel": false,
    "is_mehadrin": false,
    "is_hechsher": true,
    "rating": 4.0,
    "review_count": 0,
    "price_range": "$$",
    "hours": "Hours vary by location",
    "created_at": "2025-07-30T22:24:52.375618",
    "updated_at": "2025-07-30T22:24:52.375619"
  },
  {
    "name": "Chill & Grill Pita Boca",
    "address": "7158 Beracasa Way, Boca Raton, FL, 33433",
    "city": "Boca Raton",
    "state": "FL",
    "zip_code": "",
    "phone": null,
    "website": "http://www.chillngrillpita.com",
    "cuisine_type": "Restaurant",
    "description": "Kosher restaurant certified by ORB",
    "image_url": "",
    "hechsher_details": "ORB Kosher",
    "is_kosher": true,
    "is_glatt": false,
    "is_cholov_yisroel": false,
    "is_pas_yisroel": false,
    "is_bishul_yisroel": false,
    "is_mehadrin": false,
    "is_hechsher": true,
    "rating": 4.0,
    "review_count": 0,
    "price_range": "$$",
    "hours": "Hours vary by location",
    "created_at": "2025-07-30T22:24:52.375675",
    "updated_at": "2025-07-30T22:24:52.375677"
  },
  {
    "name": "Ditmas Kitchen and Cocktail",
    "address": "21077 Powerline Rd, Boca Raton, FL 33433",
    "city": "Boca Raton",
    "state": "FL",
    "zip_code": "33433",
    "phone": null,
    "website": "http://www.ditmasboca.com\t",
    "cuisine_type": "Restaurant",
    "description": "Kosher restaurant certified by ORB",
    "image_url": "",
    "hechsher_details": "ORB Kosher",
    "is_kosher": true,
    "is_glatt": false,
    "is_cholov_yisroel": false,
    "is_pas_yisroel": false,
    "is_bishul_yisroel": false,
    "is_mehadrin": false,
    "is_hechsher": true,
    "rating": 4.0,
    "review_count": 0,
    "price_range": "$$",
    "hours": "Hours vary by location",
    "created_at": "2025-07-30T22:24:52.375728",
    "updated_at": "2025-07-30T22:24:52.375730"
  },
  {
    "name": "Hummus Achla Hallandale",
    "address": "658 Hallandale Beach Blvd, Hallandale Beach, FL 33009",
    "city": "Hallandale Beach",
    "state": "FL",
    "zip_code": "33009",
    "phone": null,
    "website": "https://www.facebook.com/HummusAchla/",
    "cuisine_type": "Restaurant",
    "description": "Kosher restaurant certified by ORB",
    "image_url": "",
    "hechsher_details": "ORB Kosher",
    "is_kosher": true,
    "is_glatt": false,
    "is_cholov_yisroel": false,
    "is_pas_yisroel": false,
    "is_bishul_yisroel": false,
    "is_mehadrin": false,
    "is_hechsher": true,
    "rating": 4.0,
    "review_count": 0,
    "price_range": "$$",
    "hours": "Hours vary by location",
    "created_at": "2025-07-30T22:24:52.375844",
    "updated_at": "2025-07-30T22:24:52.375846"
  },
  {
    "name": "Orchid's Garden",
    "address": "9045 La Fontana Blvd, Boca Raton, FL 33434",
    "city": "Boca Raton",
    "state": "FL",
    "zip_code": "33434",
    "phone": null,
    "website": "http://www.orchidsgardenorb.com",
    "cuisine_type": "Restaurant",
    "description": "Kosher restaurant certified by ORB",
    "image_url": "",
    "hechsher_details": "ORB Kosher",
    "is_kosher": true,
    "is_glatt": false,
    "is_cholov_yisroel": false,
    "is_pas_yisroel": false,
    "is_bishul_yisroel": false,
    "is_mehadrin": false,
    "is_hechsher": true,
    "rating": 4.0,
    "review_count": 0,
    "price_range": "$$",
    "hours": "Hours vary by location",
    "created_at": "2025-07-30T22:24:52.375905",
    "updated_at": "2025-07-30T22:24:52.375906"
  },
  {
    "name": "Sunrise Pita & Grill (Davie)",
    "address": "2275 S University Dr, Davie, FL 33324",
    "city": "Davie",
    "state": "FL",
    "zip_code": "33324",
    "phone": null,
    "website": "http://www.sunrisepita.com",
    "cuisine_type": "Restaurant",
    "description": "Kosher restaurant certified by ORB",
    "image_url": "",
    "hechsher_details": "ORB Kosher",
    "is_kosher": true,
    "is_glatt": false,
    "is_cholov_yisroel": false,
    "is_pas_yisroel": false,
    "is_bishul_yisroel": false,
    "is_mehadrin": false,
    "is_hechsher": true,
    "rating": 4.0,
    "review_count": 0,
    "price_range": "$$",
    "hours": "Hours vary by location",
    "created_at": "2025-07-30T22:24:52.375964",
    "updated_at": "2025-07-30T22:24:52.375965"
  },
  {
    "name": "Levy's Shawarma",
    "address": "3575 NE 207th St, B11, Aventura, FL 33180",
    "city": "",
    "state": "",
    "zip_code": "",
    "phone": null,
    "website": "https://www.levysshawarma.com/",
    "cuisine_type": "Restaurant",
    "description": "Kosher restaurant certified by ORB",
    "image_url": "",
    "hechsher_details": "ORB Kosher",
    "is_kosher": true,
    "is_glatt": false,
    "is_cholov_yisroel": false,
    "is_pas_yisroel": false,
    "is_bishul_yisroel": false,
    "is_mehadrin": false,
    "is_hechsher": true,
    "rating": 4.0,
    "review_count": 0,
    "price_range": "$$",
    "hours": "Hours vary by location",
    "created_at": "2025-07-30T22:24:52.376027",
    "updated_at": "2025-07-30T22:24:52.376028"
  },
  {
    "name": "Holy Smokes BBQ and Grill (Food Truck)",
    "address": "3925 Lockwood Blvd, Oviedo, FL 32765",
    "city": "",
    "state": "FL",
    "zip_code": "32765",
    "phone": null,
    "website": "https://www.facebook.com/Holysmokesbbqandgrill/",
    "cuisine_type": "Restaurant",
    "description": "Kosher restaurant certified by ORB",
    "image_url": "",
    "hechsher_details": "ORB Kosher",
    "is_kosher": true,
    "is_glatt": false,
    "is_cholov_yisroel": false,
    "is_pas_yisroel": false,
    "is_bishul_yisroel": false,
    "is_mehadrin": false,
    "is_hechsher": true,
    "rating": 4.0,
    "review_count": 0,
    "price_range": "$$",
    "hours": "Hours vary by location",
    "created_at": "2025-07-30T22:24:52.376089",
    "updated_at": "2025-07-30T22:24:52.376091"
  },
  {
    "name": "Friendship Cafe & Catering",
    "address": "1304 E Las Olas Blvd, Fort Lauderdale, FL 33301",
    "city": "Fort Lauderdale",
    "state": "FL",
    "zip_code": "33301",
    "phone": null,
    "website": "",
    "cuisine_type": "Restaurant",
    "description": "Kosher restaurant certified by ORB",
    "image_url": "",
    "hechsher_details": "ORB Kosher",
    "is_kosher": true,
    "is_glatt": false,
    "is_cholov_yisroel": false,
    "is_pas_yisroel": false,
    "is_bishul_yisroel": false,
    "is_mehadrin": false,
    "is_hechsher": true,
    "rating": 4.0,
    "review_count": 0,
    "price_range": "$$",
    "hours": "Hours vary by location",
    "created_at": "2025-07-30T22:24:52.376148",
    "updated_at": "2025-07-30T22:24:52.376150"
  },
  {
    "name": "Tagine by Alma Grill",
    "address": "The Village at Gulfstream Park 901 S Federal, #1130, Hallandale Beach, FL 33009",
    "city": "",
    "state": "",
    "zip_code": "",
    "phone": null,
    "website": "http://www.bissalehmiami.com",
    "cuisine_type": "Restaurant",
    "description": "Kosher restaurant certified by ORB",
    "image_url": "",
    "hechsher_details": "ORB Kosher",
    "is_kosher": true,
    "is_glatt": false,
    "is_cholov_yisroel": false,
    "is_pas_yisroel": false,
    "is_bishul_yisroel": false,
    "is_mehadrin": false,
    "is_hechsher": true,
    "rating": 4.0,
    "review_count": 0,
    "price_range": "$$",
    "hours": "Hours vary by location",
    "created_at": "2025-07-30T22:24:52.376211",
    "updated_at": "2025-07-30T22:24:52.376213"
  },
  {
    "name": "Grill Xpress",
    "address": "10143 W Oakland Park, Sunrise FL 33351",
    "city": "",
    "state": "",
    "zip_code": "",
    "phone": null,
    "website": "http://I don\u2019t have ",
    "cuisine_type": "Restaurant",
    "description": "Kosher restaurant certified by ORB",
    "image_url": "",
    "hechsher_details": "ORB Kosher",
    "is_kosher": true,
    "is_glatt": false,
    "is_cholov_yisroel": false,
    "is_pas_yisroel": false,
    "is_bishul_yisroel": false,
    "is_mehadrin": false,
    "is_hechsher": true,
    "rating": 4.0,
    "review_count": 0,
    "price_range": "$$",
    "hours": "Hours vary by location",
    "created_at": "2025-07-30T22:24:52.376271",
    "updated_at": "2025-07-30T22:24:52.376272"
  },
  {
    "name": "PX Grill Mediterranean Cuisine",
    "address": "3558 N Ocean Blvd, Fort Lauderdale, FL 33308",
    "city": "Fort Lauderdale",
    "state": "FL",
    "zip_code": "33308",
    "phone": null,
    "website": "https://www.facebook.com/pitaxpress/",
    "cuisine_type": "Restaurant",
    "description": "Kosher restaurant certified by ORB",
    "image_url": "",
    "hechsher_details": "ORB Kosher",
    "is_kosher": true,
    "is_glatt": false,
    "is_cholov_yisroel": false,
    "is_pas_yisroel": false,
    "is_bishul_yisroel": false,
    "is_mehadrin": false,
    "is_hechsher": true,
    "rating": 4.0,
    "review_count": 0,
    "price_range": "$$",
    "hours": "Hours vary by location",
    "created_at": "2025-07-30T22:24:52.376324",
    "updated_at": "2025-07-30T22:24:52.376326"
  },
  {
    "name": "Oak and Ember",
    "address": "7600 W Camino Real, Boca Raton, FL 33433",
    "city": "Boca Raton",
    "state": "FL",
    "zip_code": "33433",
    "phone": null,
    "website": "https://www.oakandemberboca.com/",
    "cuisine_type": "Restaurant",
    "description": "Kosher restaurant certified by ORB",
    "image_url": "",
    "hechsher_details": "ORB Kosher",
    "is_kosher": true,
    "is_glatt": false,
    "is_cholov_yisroel": false,
    "is_pas_yisroel": false,
    "is_bishul_yisroel": false,
    "is_mehadrin": false,
    "is_hechsher": true,
    "rating": 4.0,
    "review_count": 0,
    "price_range": "$$",
    "hours": "Hours vary by location",
    "created_at": "2025-07-30T22:24:52.376382",
    "updated_at": "2025-07-30T22:24:52.376383"
  },
  {
    "name": "Burnt Smokehouse and Bar",
    "address": "8177 Glades Rd, Bay 21, Boca Raton, FL 33434",
    "city": "",
    "state": "",
    "zip_code": "",
    "phone": null,
    "website": "https://burntbocafl.com/",
    "cuisine_type": "Restaurant",
    "description": "Kosher restaurant certified by ORB",
    "image_url": "",
    "hechsher_details": "ORB Kosher",
    "is_kosher": true,
    "is_glatt": false,
    "is_cholov_yisroel": false,
    "is_pas_yisroel": false,
    "is_bishul_yisroel": false,
    "is_mehadrin": false,
    "is_hechsher": true,
    "rating": 4.0,
    "review_count": 0,
    "price_range": "$$",
    "hours": "Hours vary by location",
    "created_at": "2025-07-30T22:24:52.376447",
    "updated_at": "2025-07-30T22:24:52.376449"
  },
  {
    "name": "JZ Steakhouse",
    "address": "4000 N 46th Ave, Hollywood, FL 33021",
    "city": "Hollywood",
    "state": "FL",
    "zip_code": "33021",
    "phone": null,
    "website": "http://jzsteakhouse.com",
    "cuisine_type": "Restaurant",
    "description": "Kosher restaurant certified by ORB",
    "image_url": "",
    "hechsher_details": "ORB Kosher",
    "is_kosher": true,
    "is_glatt": false,
    "is_cholov_yisroel": false,
    "is_pas_yisroel": false,
    "is_bishul_yisroel": false,
    "is_mehadrin": false,
    "is_hechsher": true,
    "rating": 4.0,
    "review_count": 0,
    "price_range": "$$",
    "hours": "Hours vary by location",
    "created_at": "2025-07-30T22:24:52.376504",
    "updated_at": "2025-07-30T22:24:52.376505"
  },
  {
    "name": "The Cave Kosher Bar & Grill",
    "address": "5650 Stirling Rd #28, Hollywood, FL 33021",
    "city": "Hollywood",
    "state": "FL",
    "zip_code": "33021",
    "phone": null,
    "website": "http://Www.thecavefl.com",
    "cuisine_type": "Restaurant",
    "description": "Kosher restaurant certified by ORB",
    "image_url": "",
    "hechsher_details": "ORB Kosher",
    "is_kosher": true,
    "is_glatt": false,
    "is_cholov_yisroel": false,
    "is_pas_yisroel": false,
    "is_bishul_yisroel": false,
    "is_mehadrin": false,
    "is_hechsher": true,
    "rating": 4.0,
    "review_count": 0,
    "price_range": "$$",
    "hours": "Hours vary by location",
    "created_at": "2025-07-30T22:24:52.376561",
    "updated_at": "2025-07-30T22:24:52.376563"
  },
  {
    "name": "Capas Burger",
    "address": "21000 W Dixie Hwy, Miami FL 33180",
    "city": "Miami",
    "state": "",
    "zip_code": "",
    "phone": null,
    "website": "https://capasburger.com/",
    "cuisine_type": "Restaurant",
    "description": "Kosher restaurant certified by ORB",
    "image_url": "",
    "hechsher_details": "ORB Kosher",
    "is_kosher": true,
    "is_glatt": false,
    "is_cholov_yisroel": false,
    "is_pas_yisroel": false,
    "is_bishul_yisroel": false,
    "is_mehadrin": false,
    "is_hechsher": true,
    "rating": 4.0,
    "review_count": 0,
    "price_range": "$$",
    "hours": "Hours vary by location",
    "created_at": "2025-07-30T22:24:52.376622",
    "updated_at": "2025-07-30T22:24:52.376623"
  },
  {
    "name": "Kosher Chobee",
    "address": "4875 Okeechobee Blvd, West Palm Beach, FL 33417",
    "city": "West Palm Beach",
    "state": "FL",
    "zip_code": "33417",
    "phone": null,
    "website": "http://not yet",
    "cuisine_type": "Restaurant",
    "description": "Kosher restaurant certified by ORB",
    "image_url": "",
    "hechsher_details": "ORB Kosher",
    "is_kosher": true,
    "is_glatt": false,
    "is_cholov_yisroel": false,
    "is_pas_yisroel": false,
    "is_bishul_yisroel": false,
    "is_mehadrin": false,
    "is_hechsher": true,
    "rating": 4.0,
    "review_count": 0,
    "price_range": "$$",
    "hours": "Hours vary by location",
    "created_at": "2025-07-30T22:24:52.376682",
    "updated_at": "2025-07-30T22:24:52.376684"
  },
  {
    "name": "Plantation Pita & Grill",
    "address": "8966 Cleary Blvd, Plantation, FL, 33324",
    "city": "Plantation",
    "state": "FL",
    "zip_code": "",
    "phone": null,
    "website": "http://Www.Plantationpita.Getsauce.com",
    "cuisine_type": "Restaurant",
    "description": "Kosher restaurant certified by ORB",
    "image_url": "",
    "hechsher_details": "ORB Kosher",
    "is_kosher": true,
    "is_glatt": false,
    "is_cholov_yisroel": false,
    "is_pas_yisroel": false,
    "is_bishul_yisroel": false,
    "is_mehadrin": false,
    "is_hechsher": true,
    "rating": 4.0,
    "review_count": 0,
    "price_range": "$$",
    "hours": "Hours vary by location",
    "created_at": "2025-07-30T22:24:52.376743",
    "updated_at": "2025-07-30T22:24:52.376744"
  },
  {
    "name": "Bissli Grill",
    "address": "12355 Hagen Ranch Rd, Boynton Beach, FL 33437",
    "city": "Boynton Beach",
    "state": "FL",
    "zip_code": "33437",
    "phone": null,
    "website": "http://Not available yet. ",
    "cuisine_type": "Restaurant",
    "description": "Kosher restaurant certified by ORB",
    "image_url": "",
    "hechsher_details": "ORB Kosher",
    "is_kosher": true,
    "is_glatt": false,
    "is_cholov_yisroel": false,
    "is_pas_yisroel": false,
    "is_bishul_yisroel": false,
    "is_mehadrin": false,
    "is_hechsher": true,
    "rating": 4.0,
    "review_count": 0,
    "price_range": "$$",
    "hours": "Hours vary by location",
    "created_at": "2025-07-30T22:24:52.376804",
    "updated_at": "2025-07-30T22:24:52.376805"
  },
  {
    "name": "PALA Mediterranean Kitchen",
    "address": "3317 Sheridan St, Hollywood, FL 33021",
    "city": "Hollywood",
    "state": "FL",
    "zip_code": "33021",
    "phone": null,
    "website": "",
    "cuisine_type": "Restaurant",
    "description": "Kosher restaurant certified by ORB",
    "image_url": "",
    "hechsher_details": "ORB Kosher",
    "is_kosher": true,
    "is_glatt": false,
    "is_cholov_yisroel": false,
    "is_pas_yisroel": false,
    "is_bishul_yisroel": false,
    "is_mehadrin": false,
    "is_hechsher": true,
    "rating": 4.0,
    "review_count": 0,
    "price_range": "$$",
    "hours": "Hours vary by location",
    "created_at": "2025-07-30T22:24:52.376861",
    "updated_at": "2025-07-30T22:24:52.376863"
  },
  {
    "name": "Hummus Vegas & Grill (Hollywood)",
    "address": "5800 Stirling Rd, Hollywood, FL 33021",
    "city": "Hollywood",
    "state": "FL",
    "zip_code": "33021",
    "phone": null,
    "website": "",
    "cuisine_type": "Restaurant",
    "description": "Kosher restaurant certified by ORB",
    "image_url": "",
    "hechsher_details": "ORB Kosher",
    "is_kosher": true,
    "is_glatt": false,
    "is_cholov_yisroel": false,
    "is_pas_yisroel": false,
    "is_bishul_yisroel": false,
    "is_mehadrin": false,
    "is_hechsher": true,
    "rating": 4.0,
    "review_count": 0,
    "price_range": "$$",
    "hours": "Hours vary by location",
    "created_at": "2025-07-30T22:24:52.376917",
    "updated_at": "2025-07-30T22:24:52.376919"
  },
  {
    "name": "Dabush",
    "address": "3371 Sheridan St, Hollywood, FL 33021",
    "city": "Hollywood",
    "state": "FL",
    "zip_code": "33021",
    "phone": null,
    "website": "",
    "cuisine_type": "Restaurant",
    "description": "Kosher restaurant certified by ORB",
    "image_url": "",
    "hechsher_details": "ORB Kosher",
    "is_kosher": true,
    "is_glatt": false,
    "is_cholov_yisroel": false,
    "is_pas_yisroel": false,
    "is_bishul_yisroel": false,
    "is_mehadrin": false,
    "is_hechsher": true,
    "rating": 4.0,
    "review_count": 0,
    "price_range": "$$",
    "hours": "Hours vary by location",
    "created_at": "2025-07-30T22:24:52.376975",
    "updated_at": "2025-07-30T22:24:52.376977"
  },
  {
    "name": "Traditions South LLC",
    "address": "7000 W Camino Real, Suite 100, Boca Raton, FL, 33433",
    "city": "",
    "state": "",
    "zip_code": "",
    "phone": null,
    "website": "http://n/a doesn't have one yet but this is the website for the traditions in 5T https://www.traditionseatery.com ",
    "cuisine_type": "Restaurant",
    "description": "Kosher restaurant certified by ORB",
    "image_url": "",
    "hechsher_details": "ORB Kosher",
    "is_kosher": true,
    "is_glatt": false,
    "is_cholov_yisroel": false,
    "is_pas_yisroel": false,
    "is_bishul_yisroel": false,
    "is_mehadrin": false,
    "is_hechsher": true,
    "rating": 4.0,
    "review_count": 0,
    "price_range": "$$",
    "hours": "Hours vary by location",
    "created_at": "2025-07-30T22:24:52.377037",
    "updated_at": "2025-07-30T22:24:52.377039"
  },
  {
    "name": "G7 Hospitality",
    "address": "5530 S state Rd 7, Fort Lauderdale, FL 33314",
    "city": "Fort Lauderdale",
    "state": "FL",
    "zip_code": "33314",
    "phone": null,
    "website": "",
    "cuisine_type": "Restaurant",
    "description": "Kosher restaurant certified by ORB",
    "image_url": "",
    "hechsher_details": "ORB Kosher",
    "is_kosher": true,
    "is_glatt": false,
    "is_cholov_yisroel": false,
    "is_pas_yisroel": false,
    "is_bishul_yisroel": false,
    "is_mehadrin": false,
    "is_hechsher": true,
    "rating": 4.0,
    "review_count": 0,
    "price_range": "$$",
    "hours": "Hours vary by location",
    "created_at": "2025-07-30T22:24:52.377094",
    "updated_at": "2025-07-30T22:24:52.377096"
  },
  {
    "name": "Lasso Kosher Grill",
    "address": "5511 Woodland Lane, Fort Lauderdale FL 33312",
    "city": "Fort Lauderdale",
    "state": "",
    "zip_code": "",
    "phone": null,
    "website": "http://www.lassokosher.com",
    "cuisine_type": "Restaurant",
    "description": "Kosher restaurant certified by ORB",
    "image_url": "",
    "hechsher_details": "ORB Kosher",
    "is_kosher": true,
    "is_glatt": false,
    "is_cholov_yisroel": false,
    "is_pas_yisroel": false,
    "is_bishul_yisroel": false,
    "is_mehadrin": false,
    "is_hechsher": true,
    "rating": 4.0,
    "review_count": 0,
    "price_range": "$$",
    "hours": "Hours vary by location",
    "created_at": "2025-07-30T22:24:52.377153",
    "updated_at": "2025-07-30T22:24:52.377154"
  },
  {
    "name": "Ariel\u2019s Bamboo Kitchen",
    "address": "3322 Griffin Rd, Fort Lauderdale, FL 33312",
    "city": "Fort Lauderdale",
    "state": "FL",
    "zip_code": "33312",
    "phone": null,
    "website": "",
    "cuisine_type": "Restaurant",
    "description": "Kosher restaurant certified by ORB",
    "image_url": "",
    "hechsher_details": "ORB Kosher",
    "is_kosher": true,
    "is_glatt": false,
    "is_cholov_yisroel": false,
    "is_pas_yisroel": false,
    "is_bishul_yisroel": false,
    "is_mehadrin": false,
    "is_hechsher": true,
    "rating": 4.0,
    "review_count": 0,
    "price_range": "$$",
    "hours": "Hours vary by location",
    "created_at": "2025-07-30T22:24:52.377212",
    "updated_at": "2025-07-30T22:24:52.377213"
  },
  {
    "name": "Bambu Pan Asian Kitchen (Boca)",
    "address": "141 NW 20th St, Boca Raton, FL 33431",
    "city": "Boca Raton",
    "state": "FL",
    "zip_code": "33431",
    "phone": null,
    "website": "",
    "cuisine_type": "Restaurant",
    "description": "Kosher restaurant certified by ORB",
    "image_url": "",
    "hechsher_details": "ORB Kosher",
    "is_kosher": true,
    "is_glatt": false,
    "is_cholov_yisroel": false,
    "is_pas_yisroel": false,
    "is_bishul_yisroel": false,
    "is_mehadrin": false,
    "is_hechsher": true,
    "rating": 4.0,
    "review_count": 0,
    "price_range": "$$",
    "hours": "Hours vary by location",
    "created_at": "2025-07-30T22:24:52.377273",
    "updated_at": "2025-07-30T22:24:52.377274"
  },
  {
    "name": "Smash House Burgers Miami",
    "address": "1550 NE 164th St, Miami, FL 33162",
    "city": "Miami",
    "state": "FL",
    "zip_code": "33162",
    "phone": null,
    "website": "https://www.smashhouseburgers.com/",
    "cuisine_type": "Restaurant",
    "description": "Kosher restaurant certified by ORB",
    "image_url": "",
    "hechsher_details": "ORB Kosher",
    "is_kosher": true,
    "is_glatt": false,
    "is_cholov_yisroel": false,
    "is_pas_yisroel": false,
    "is_bishul_yisroel": false,
    "is_mehadrin": false,
    "is_hechsher": true,
    "rating": 4.0,
    "review_count": 0,
    "price_range": "$$",
    "hours": "Hours vary by location",
    "created_at": "2025-07-30T22:24:52.377331",
    "updated_at": "2025-07-30T22:24:52.377333"
  },
  {
    "name": "Pita Plus Hollywood",
    "address": "2145 Stirling Rd, Fort Lauderdale, FL 33312",
    "city": "Fort Lauderdale",
    "state": "FL",
    "zip_code": "33312",
    "phone": null,
    "website": "http://Pitaplus.com",
    "cuisine_type": "Restaurant",
    "description": "Kosher restaurant certified by ORB",
    "image_url": "",
    "hechsher_details": "ORB Kosher",
    "is_kosher": true,
    "is_glatt": false,
    "is_cholov_yisroel": false,
    "is_pas_yisroel": false,
    "is_bishul_yisroel": false,
    "is_mehadrin": false,
    "is_hechsher": true,
    "rating": 4.0,
    "review_count": 0,
    "price_range": "$$",
    "hours": "Hours vary by location",
    "created_at": "2025-07-30T22:24:52.377387",
    "updated_at": "2025-07-30T22:24:52.377389"
  },
  {
    "name": "Glatt Miami",
    "address": "4747 Collins Ave, Miami Beach, FL 33140",
    "city": "Miami",
    "state": "FL",
    "zip_code": "33140",
    "phone": null,
    "website": "",
    "cuisine_type": "Restaurant",
    "description": "Kosher restaurant certified by ORB",
    "image_url": "",
    "hechsher_details": "ORB Kosher",
    "is_kosher": true,
    "is_glatt": false,
    "is_cholov_yisroel": false,
    "is_pas_yisroel": false,
    "is_bishul_yisroel": false,
    "is_mehadrin": false,
    "is_hechsher": true,
    "rating": 4.0,
    "review_count": 0,
    "price_range": "$$",
    "hours": "Hours vary by location",
    "created_at": "2025-07-30T22:24:52.377448",
    "updated_at": "2025-07-30T22:24:52.377449"
  },
  {
    "name": "Grill Place",
    "address": "265 NE Spanish River Blvd, Boca Raton, FL 33431",
    "city": "Boca Raton",
    "state": "FL",
    "zip_code": "33431",
    "phone": null,
    "website": "http://1",
    "cuisine_type": "Restaurant",
    "description": "Kosher restaurant certified by ORB",
    "image_url": "",
    "hechsher_details": "ORB Kosher",
    "is_kosher": true,
    "is_glatt": false,
    "is_cholov_yisroel": false,
    "is_pas_yisroel": false,
    "is_bishul_yisroel": false,
    "is_mehadrin": false,
    "is_hechsher": true,
    "rating": 4.0,
    "review_count": 0,
    "price_range": "$$",
    "hours": "Hours vary by location",
    "created_at": "2025-07-30T22:24:52.377506",
    "updated_at": "2025-07-30T22:24:52.377507"
  },
  {
    "name": "The W Kosher Steakhouse",
    "address": "12250 Westchester Club Drive, Boynton Beach FL 33437",
    "city": "Boynton Beach",
    "state": "",
    "zip_code": "",
    "phone": null,
    "website": "http://MeetAtTheW.com",
    "cuisine_type": "Restaurant",
    "description": "Kosher restaurant certified by ORB",
    "image_url": "",
    "hechsher_details": "ORB Kosher",
    "is_kosher": true,
    "is_glatt": false,
    "is_cholov_yisroel": false,
    "is_pas_yisroel": false,
    "is_bishul_yisroel": false,
    "is_mehadrin": false,
    "is_hechsher": true,
    "rating": 4.0,
    "review_count": 0,
    "price_range": "$$",
    "hours": "Hours vary by location",
    "created_at": "2025-07-30T22:24:52.377561",
    "updated_at": "2025-07-30T22:24:52.377562"
  },
  {
    "name": "Panini / Panino Kosher Hollywood",
    "address": "5978 SW 40th Ave, Fort Lauderdale, FL 33314",
    "city": "Fort Lauderdale",
    "state": "FL",
    "zip_code": "33314",
    "phone": null,
    "website": "http://www.123.com",
    "cuisine_type": "Restaurant",
    "description": "Kosher restaurant certified by ORB",
    "image_url": "",
    "hechsher_details": "ORB Kosher",
    "is_kosher": true,
    "is_glatt": false,
    "is_cholov_yisroel": false,
    "is_pas_yisroel": false,
    "is_bishul_yisroel": false,
    "is_mehadrin": false,
    "is_hechsher": true,
    "rating": 4.0,
    "review_count": 0,
    "price_range": "$$",
    "hours": "Hours vary by location",
    "created_at": "2025-07-30T22:24:52.377619",
    "updated_at": "2025-07-30T22:24:52.377620"
  },
  {
    "name": "Subaba Subs",
    "address": "4806 SW 28th Terrace, Dania, FL 33314",
    "city": "",
    "state": "FL",
    "zip_code": "33314",
    "phone": null,
    "website": "",
    "cuisine_type": "Restaurant",
    "description": "Kosher restaurant certified by ORB",
    "image_url": "",
    "hechsher_details": "ORB Kosher",
    "is_kosher": true,
    "is_glatt": false,
    "is_cholov_yisroel": false,
    "is_pas_yisroel": false,
    "is_bishul_yisroel": false,
    "is_mehadrin": false,
    "is_hechsher": true,
    "rating": 4.0,
    "review_count": 0,
    "price_range": "$$",
    "hours": "Hours vary by location",
    "created_at": "2025-07-30T22:24:52.377682",
    "updated_at": "2025-07-30T22:24:52.377684"
  },
  {
    "name": "Smash House Burgers Boca",
    "address": "21065 Powerline Rd, Suite C15, Boca Raton, FL 33433",
    "city": "",
    "state": "",
    "zip_code": "",
    "phone": null,
    "website": "https://www.smashhouseburgers.com/",
    "cuisine_type": "Restaurant",
    "description": "Kosher restaurant certified by ORB",
    "image_url": "",
    "hechsher_details": "ORB Kosher",
    "is_kosher": true,
    "is_glatt": false,
    "is_cholov_yisroel": false,
    "is_pas_yisroel": false,
    "is_bishul_yisroel": false,
    "is_mehadrin": false,
    "is_hechsher": true,
    "rating": 4.0,
    "review_count": 0,
    "price_range": "$$",
    "hours": "Hours vary by location",
    "created_at": "2025-07-30T22:24:52.377740",
    "updated_at": "2025-07-30T22:24:52.377742"
  },
  {
    "name": "Shipudim",
    "address": "5650 Stirling Rd, Hollywood, FL 33021",
    "city": "Hollywood",
    "state": "FL",
    "zip_code": "33021",
    "phone": null,
    "website": "http://Www.orbkosher.com",
    "cuisine_type": "Restaurant",
    "description": "Kosher restaurant certified by ORB",
    "image_url": "",
    "hechsher_details": "ORB Kosher",
    "is_kosher": true,
    "is_glatt": false,
    "is_cholov_yisroel": false,
    "is_pas_yisroel": false,
    "is_bishul_yisroel": false,
    "is_mehadrin": false,
    "is_hechsher": true,
    "rating": 4.0,
    "review_count": 0,
    "price_range": "$$",
    "hours": "Hours vary by location",
    "created_at": "2025-07-30T22:24:52.377800",
    "updated_at": "2025-07-30T22:24:52.377802"
  },
  {
    "name": "Pita Lee",
    "address": "15280 Jog Rd, Suite G, Delray Beach, FL 33446",
    "city": "",
    "state": "",
    "zip_code": "",
    "phone": null,
    "website": "https://pitalee.com/",
    "cuisine_type": "Restaurant",
    "description": "Kosher restaurant certified by ORB",
    "image_url": "",
    "hechsher_details": "ORB Kosher",
    "is_kosher": true,
    "is_glatt": false,
    "is_cholov_yisroel": false,
    "is_pas_yisroel": false,
    "is_bishul_yisroel": false,
    "is_mehadrin": false,
    "is_hechsher": true,
    "rating": 4.0,
    "review_count": 0,
    "price_range": "$$",
    "hours": "Hours vary by location",
    "created_at": "2025-07-30T22:24:52.377859",
    "updated_at": "2025-07-30T22:24:52.377860"
  },
  {
    "name": "Kosher To Go",
    "address": "1011 W Hallandale Beach Blvd, #106, Hallandale Beach, FL 33009",
    "city": "",
    "state": "",
    "zip_code": "",
    "phone": null,
    "website": "",
    "cuisine_type": "Restaurant",
    "description": "Kosher restaurant certified by ORB",
    "image_url": "",
    "hechsher_details": "ORB Kosher",
    "is_kosher": true,
    "is_glatt": false,
    "is_cholov_yisroel": false,
    "is_pas_yisroel": false,
    "is_bishul_yisroel": false,
    "is_mehadrin": false,
    "is_hechsher": true,
    "rating": 4.0,
    "review_count": 0,
    "price_range": "$$",
    "hours": "Hours vary by location",
    "created_at": "2025-07-30T22:24:52.377917",
    "updated_at": "2025-07-30T22:24:52.377918"
  },
  {
    "name": "Knights Table Diner",
    "address": "3925 Lockwood Blvd, Oviedo, FL 32765",
    "city": "",
    "state": "FL",
    "zip_code": "32765",
    "phone": null,
    "website": "",
    "cuisine_type": "Restaurant",
    "description": "Kosher restaurant certified by ORB",
    "image_url": "",
    "hechsher_details": "ORB Kosher",
    "is_kosher": true,
    "is_glatt": false,
    "is_cholov_yisroel": false,
    "is_pas_yisroel": false,
    "is_bishul_yisroel": false,
    "is_mehadrin": false,
    "is_hechsher": true,
    "rating": 4.0,
    "review_count": 0,
    "price_range": "$$",
    "hours": "Hours vary by location",
    "created_at": "2025-07-30T22:24:52.377985",
    "updated_at": "2025-07-30T22:24:52.377987"
  },
  {
    "name": "Barakeh Shawarma & Grill",
    "address": "47 NE 2nd Ave, Miami, FL 33132",
    "city": "Miami",
    "state": "FL",
    "zip_code": "33132",
    "phone": null,
    "website": "http://Www.google.com",
    "cuisine_type": "Restaurant",
    "description": "Kosher restaurant certified by ORB",
    "image_url": "",
    "hechsher_details": "ORB Kosher",
    "is_kosher": true,
    "is_glatt": false,
    "is_cholov_yisroel": false,
    "is_pas_yisroel": false,
    "is_bishul_yisroel": false,
    "is_mehadrin": false,
    "is_hechsher": true,
    "rating": 4.0,
    "review_count": 0,
    "price_range": "$$",
    "hours": "Hours vary by location",
    "created_at": "2025-07-30T22:24:52.378050",
    "updated_at": "2025-07-30T22:24:52.378052"
  },
  {
    "name": "Bissaleh Alma Grill & Bar",
    "address": "501 Silks Run, Suite 1130, Hallandale Beach, FL 33009",
    "city": "",
    "state": "",
    "zip_code": "",
    "phone": null,
    "website": "",
    "cuisine_type": "Restaurant",
    "description": "Kosher restaurant certified by ORB",
    "image_url": "",
    "hechsher_details": "ORB Kosher",
    "is_kosher": true,
    "is_glatt": false,
    "is_cholov_yisroel": false,
    "is_pas_yisroel": false,
    "is_bishul_yisroel": false,
    "is_mehadrin": false,
    "is_hechsher": true,
    "rating": 4.0,
    "review_count": 0,
    "price_range": "$$",
    "hours": "Hours vary by location",
    "created_at": "2025-07-30T22:24:52.378150",
    "updated_at": "2025-07-30T22:24:52.378154"
  },
  {
    "name": "Malka West Palm Beach",
    "address": "209 6th St, West Palm Beach, FL 33401",
    "city": "West Palm Beach",
    "state": "FL",
    "zip_code": "33401",
    "phone": null,
    "website": "https://www.malka-usa.com/",
    "cuisine_type": "Restaurant",
    "description": "Kosher restaurant certified by ORB",
    "image_url": "",
    "hechsher_details": "ORB Kosher",
    "is_kosher": true,
    "is_glatt": false,
    "is_cholov_yisroel": false,
    "is_pas_yisroel": false,
    "is_bishul_yisroel": false,
    "is_mehadrin": false,
    "is_hechsher": true,
    "rating": 4.0,
    "review_count": 0,
    "price_range": "$$",
    "hours": "Hours vary by location",
    "created_at": "2025-07-30T22:24:52.378235",
    "updated_at": "2025-07-30T22:24:52.378237"
  },
  {
    "name": "Street Bar Surfside",
    "address": "9561 Harding Ave, Surfside, FL 33154",
    "city": "Surfside",
    "state": "FL",
    "zip_code": "33154",
    "phone": null,
    "website": "http://Street bar.com",
    "cuisine_type": "Restaurant",
    "description": "Kosher restaurant certified by ORB",
    "image_url": "",
    "hechsher_details": "ORB Kosher",
    "is_kosher": true,
    "is_glatt": false,
    "is_cholov_yisroel": false,
    "is_pas_yisroel": false,
    "is_bishul_yisroel": false,
    "is_mehadrin": false,
    "is_hechsher": true,
    "rating": 4.0,
    "review_count": 0,
    "price_range": "$$",
    "hours": "Hours vary by location",
    "created_at": "2025-07-30T22:24:52.378302",
    "updated_at": "2025-07-30T22:24:52.378304"
  },
  {
    "name": "Panini / Panino Kosher Surfside",
    "address": "9454 Harding Ave, Surfside, FL 33154",
    "city": "Surfside",
    "state": "FL",
    "zip_code": "33154",
    "phone": null,
    "website": "",
    "cuisine_type": "Restaurant",
    "description": "Kosher restaurant certified by ORB",
    "image_url": "",
    "hechsher_details": "ORB Kosher",
    "is_kosher": true,
    "is_glatt": false,
    "is_cholov_yisroel": false,
    "is_pas_yisroel": false,
    "is_bishul_yisroel": false,
    "is_mehadrin": false,
    "is_hechsher": true,
    "rating": 4.0,
    "review_count": 0,
    "price_range": "$$",
    "hours": "Hours vary by location",
    "created_at": "2025-07-30T22:24:52.378368",
    "updated_at": "2025-07-30T22:24:52.378370"
  },
  {
    "name": "Avi\u2019s Grill, Inc.",
    "address": "249 E. Palmetto Park Rd, Boca Raton, FL 33432",
    "city": "Boca Raton",
    "state": "FL",
    "zip_code": "33432",
    "phone": null,
    "website": "",
    "cuisine_type": "Restaurant",
    "description": "Kosher restaurant certified by ORB",
    "image_url": "",
    "hechsher_details": "ORB Kosher",
    "is_kosher": true,
    "is_glatt": false,
    "is_cholov_yisroel": false,
    "is_pas_yisroel": false,
    "is_bishul_yisroel": false,
    "is_mehadrin": false,
    "is_hechsher": true,
    "rating": 4.0,
    "review_count": 0,
    "price_range": "$$",
    "hours": "Hours vary by location",
    "created_at": "2025-07-30T22:24:52.378435",
    "updated_at": "2025-07-30T22:24:52.378436"
  },
  {
    "name": "Urban Fine Street Food",
    "address": "18120 Collins Ave, Sunny Isles Beach, FL 33160",
    "city": "Sunny Isles Beach",
    "state": "FL",
    "zip_code": "33160",
    "phone": null,
    "website": "",
    "cuisine_type": "Restaurant",
    "description": "Kosher restaurant certified by ORB",
    "image_url": "",
    "hechsher_details": "ORB Kosher",
    "is_kosher": true,
    "is_glatt": false,
    "is_cholov_yisroel": false,
    "is_pas_yisroel": false,
    "is_bishul_yisroel": false,
    "is_mehadrin": false,
    "is_hechsher": true,
    "rating": 4.0,
    "review_count": 0,
    "price_range": "$$",
    "hours": "Hours vary by location",
    "created_at": "2025-07-30T22:24:52.378498",
    "updated_at": "2025-07-30T22:24:52.378500"
  },
  {
    "name": "Bambu Hollywood - Shanghai 18",
    "address": "5650 Stirling Rd, Suite 8+9, Hollywood, FL 33021",
    "city": "",
    "state": "",
    "zip_code": "",
    "phone": null,
    "website": "",
    "cuisine_type": "Restaurant",
    "description": "Kosher restaurant certified by ORB",
    "image_url": "",
    "hechsher_details": "ORB Kosher",
    "is_kosher": true,
    "is_glatt": false,
    "is_cholov_yisroel": false,
    "is_pas_yisroel": false,
    "is_bishul_yisroel": false,
    "is_mehadrin": false,
    "is_hechsher": true,
    "rating": 4.0,
    "review_count": 0,
    "price_range": "$$",
    "hours": "Hours vary by location",
    "created_at": "2025-07-30T22:24:52.378556",
    "updated_at": "2025-07-30T22:24:52.378558"
  },
  {
    "name": "Chayhana Samarkand",
    "address": "850 W Hallandale Beach Blvd, Hallandale Beach, FL 33009",
    "city": "Hallandale Beach",
    "state": "FL",
    "zip_code": "33009",
    "phone": null,
    "website": "",
    "cuisine_type": "Restaurant",
    "description": "Kosher restaurant certified by ORB",
    "image_url": "",
    "hechsher_details": "ORB Kosher",
    "is_kosher": true,
    "is_glatt": false,
    "is_cholov_yisroel": false,
    "is_pas_yisroel": false,
    "is_bishul_yisroel": false,
    "is_mehadrin": false,
    "is_hechsher": true,
    "rating": 4.0,
    "review_count": 0,
    "price_range": "$$",
    "hours": "Hours vary by location",
    "created_at": "2025-07-30T22:24:52.378617",
    "updated_at": "2025-07-30T22:24:52.378619"
  },
  {
    "name": "Puya Urban Cantina LLC",
    "address": "2726 Griffin Rd, Ste 3-6, Dania Beach, FL 33312",
    "city": "",
    "state": "",
    "zip_code": "",
    "phone": null,
    "website": "",
    "cuisine_type": "Restaurant",
    "description": "Kosher restaurant certified by ORB",
    "image_url": "",
    "hechsher_details": "ORB Kosher",
    "is_kosher": true,
    "is_glatt": false,
    "is_cholov_yisroel": false,
    "is_pas_yisroel": false,
    "is_bishul_yisroel": false,
    "is_mehadrin": false,
    "is_hechsher": true,
    "rating": 4.0,
    "review_count": 0,
    "price_range": "$$",
    "hours": "Hours vary by location",
    "created_at": "2025-07-30T22:24:52.378674",
    "updated_at": "2025-07-30T22:24:52.378676"
  },
  {
    "name": "Ben Yehuda Grill",
    "address": "3455 NE 163rd St, North Miami Beach, FL 33160",
    "city": "Miami",
    "state": "FL",
    "zip_code": "33160",
    "phone": null,
    "website": "",
    "cuisine_type": "Restaurant",
    "description": "Kosher restaurant certified by ORB",
    "image_url": "",
    "hechsher_details": "ORB Kosher",
    "is_kosher": true,
    "is_glatt": false,
    "is_cholov_yisroel": false,
    "is_pas_yisroel": false,
    "is_bishul_yisroel": false,
    "is_mehadrin": false,
    "is_hechsher": true,
    "rating": 4.0,
    "review_count": 0,
    "price_range": "$$",
    "hours": "Hours vary by location",
    "created_at": "2025-07-30T22:24:52.378742",
    "updated_at": "2025-07-30T22:24:52.378743"
  },
  {
    "name": "Rave Pizza & Sushi",
    "address": "7300 West Camino Real, Boca Raton, FL 33433",
    "city": "Boca Raton",
    "state": "FL",
    "zip_code": "33433",
    "phone": null,
    "website": "http://raveboca.com",
    "cuisine_type": "Restaurant",
    "description": "Kosher restaurant certified by ORB",
    "image_url": "",
    "hechsher_details": "ORB Kosher",
    "is_kosher": true,
    "is_glatt": false,
    "is_cholov_yisroel": false,
    "is_pas_yisroel": false,
    "is_bishul_yisroel": false,
    "is_mehadrin": false,
    "is_hechsher": true,
    "rating": 4.0,
    "review_count": 0,
    "price_range": "$$",
    "hours": "Hours vary by location",
    "created_at": "2025-07-30T22:24:52.379274",
    "updated_at": "2025-07-30T22:24:52.379276"
  },
  {
    "name": "Bagel Boss (JCC)",
    "address": "5850 S Pine Island Rd, Davie, FL 33328",
    "city": "Davie",
    "state": "FL",
    "zip_code": "33328",
    "phone": null,
    "website": "http://Bagelbosshollywood.com",
    "cuisine_type": "Restaurant",
    "description": "Kosher restaurant certified by ORB",
    "image_url": "",
    "hechsher_details": "ORB Kosher",
    "is_kosher": true,
    "is_glatt": false,
    "is_cholov_yisroel": false,
    "is_pas_yisroel": false,
    "is_bishul_yisroel": false,
    "is_mehadrin": false,
    "is_hechsher": true,
    "rating": 4.0,
    "review_count": 0,
    "price_range": "$$",
    "hours": "Hours vary by location",
    "created_at": "2025-07-30T22:24:52.379637",
    "updated_at": "2025-07-30T22:24:52.379638"
  },
  {
    "name": "Bagel Boss (Miami Beach)",
    "address": "740 W 41st St, Miami Beach, FL 33140",
    "city": "Miami",
    "state": "FL",
    "zip_code": "33140",
    "phone": null,
    "website": "",
    "cuisine_type": "Restaurant",
    "description": "Kosher restaurant certified by ORB",
    "image_url": "",
    "hechsher_details": "ORB Kosher",
    "is_kosher": true,
    "is_glatt": false,
    "is_cholov_yisroel": false,
    "is_pas_yisroel": false,
    "is_bishul_yisroel": false,
    "is_mehadrin": false,
    "is_hechsher": true,
    "rating": 4.0,
    "review_count": 0,
    "price_range": "$$",
    "hours": "Hours vary by location",
    "created_at": "2025-07-30T22:24:52.380045",
    "updated_at": "2025-07-30T22:24:52.380046"
  },
  {
    "name": "Vish Hummus Hollywood",
    "address": "2893 Stirling Rd, Fort Lauderdale, FL 33312",
    "city": "Fort Lauderdale",
    "state": "FL",
    "zip_code": "33312",
    "phone": null,
    "website": "http://Vish.rest",
    "cuisine_type": "Restaurant",
    "description": "Kosher restaurant certified by ORB",
    "image_url": "",
    "hechsher_details": "ORB Kosher",
    "is_kosher": true,
    "is_glatt": false,
    "is_cholov_yisroel": false,
    "is_pas_yisroel": false,
    "is_bishul_yisroel": false,
    "is_mehadrin": false,
    "is_hechsher": true,
    "rating": 4.0,
    "review_count": 0,
    "price_range": "$$",
    "hours": "Hours vary by location",
    "created_at": "2025-07-30T22:24:52.380769",
    "updated_at": "2025-07-30T22:24:52.380771"
  },
  {
    "name": "Sushi Addicts",
    "address": "2909 Stirling Rd, Fort Lauderdale, FL 33312",
    "city": "Fort Lauderdale",
    "state": "FL",
    "zip_code": "33312",
    "phone": null,
    "website": "http://kosher sushiaddicts.com",
    "cuisine_type": "Restaurant",
    "description": "Kosher restaurant certified by ORB",
    "image_url": "",
    "hechsher_details": "ORB Kosher",
    "is_kosher": true,
    "is_glatt": false,
    "is_cholov_yisroel": false,
    "is_pas_yisroel": false,
    "is_bishul_yisroel": false,
    "is_mehadrin": false,
    "is_hechsher": true,
    "rating": 4.0,
    "review_count": 0,
    "price_range": "$$",
    "hours": "Hours vary by location",
    "created_at": "2025-07-30T22:24:52.380881",
    "updated_at": "2025-07-30T22:24:52.380882"
  },
  {
    "name": "Yumm Sushi",
    "address": "21073 Powerline Rd #31, Boca Raton, FL 33433",
    "city": "Boca Raton",
    "state": "FL",
    "zip_code": "33433",
    "phone": null,
    "website": "http://Yummsushi.com",
    "cuisine_type": "Restaurant",
    "description": "Kosher restaurant certified by ORB",
    "image_url": "",
    "hechsher_details": "ORB Kosher",
    "is_kosher": true,
    "is_glatt": false,
    "is_cholov_yisroel": false,
    "is_pas_yisroel": false,
    "is_bishul_yisroel": false,
    "is_mehadrin": false,
    "is_hechsher": true,
    "rating": 4.0,
    "review_count": 0,
    "price_range": "$$",
    "hours": "Hours vary by location",
    "created_at": "2025-07-30T22:24:52.380941",
    "updated_at": "2025-07-30T22:24:52.380943"
  },
  {
    "name": "Barakeh Sushi-Ya",
    "address": "47 NE 2nd Ave, Miami, FL 33132",
    "city": "Miami",
    "state": "FL",
    "zip_code": "33132",
    "phone": null,
    "website": "",
    "cuisine_type": "Restaurant",
    "description": "Kosher restaurant certified by ORB",
    "image_url": "",
    "hechsher_details": "ORB Kosher",
    "is_kosher": true,
    "is_glatt": false,
    "is_cholov_yisroel": false,
    "is_pas_yisroel": false,
    "is_bishul_yisroel": false,
    "is_mehadrin": false,
    "is_hechsher": true,
    "rating": 4.0,
    "review_count": 0,
    "price_range": "$$",
    "hours": "Hours vary by location",
    "created_at": "2025-07-30T22:24:52.381052",
    "updated_at": "2025-07-30T22:24:52.381054"
  },
  {
    "name": "Sushi House",
    "address": "5818 Stirling Rd, Hollywood, FL 33021",
    "city": "Hollywood",
    "state": "FL",
    "zip_code": "33021",
    "phone": null,
    "website": "http://SushiHouseFlorida.com",
    "cuisine_type": "Restaurant",
    "description": "Kosher restaurant certified by ORB",
    "image_url": "",
    "hechsher_details": "ORB Kosher",
    "is_kosher": true,
    "is_glatt": false,
    "is_cholov_yisroel": false,
    "is_pas_yisroel": false,
    "is_bishul_yisroel": false,
    "is_mehadrin": false,
    "is_hechsher": true,
    "rating": 4.0,
    "review_count": 0,
    "price_range": "$$",
    "hours": "Hours vary by location",
    "created_at": "2025-07-30T22:24:52.381115",
    "updated_at": "2025-07-30T22:24:52.381116"
  },
  {
    "name": "Sakura Poke and Omakase LLC",
    "address": "2790 Stirling Road, ST 5, Hollywood, FL 33020",
    "city": "",
    "state": "",
    "zip_code": "",
    "phone": null,
    "website": "http://Www.sakuraomakase.com",
    "cuisine_type": "Restaurant",
    "description": "Kosher restaurant certified by ORB",
    "image_url": "",
    "hechsher_details": "ORB Kosher",
    "is_kosher": true,
    "is_glatt": false,
    "is_cholov_yisroel": false,
    "is_pas_yisroel": false,
    "is_bishul_yisroel": false,
    "is_mehadrin": false,
    "is_hechsher": true,
    "rating": 4.0,
    "review_count": 0,
    "price_range": "$$",
    "hours": "Hours vary by location",
    "created_at": "2025-07-30T22:24:52.381175",
    "updated_at": "2025-07-30T22:24:52.381176"
  },
  {
    "name": "BREADS & CO",
    "address": "5978 SW 40th Ave, Fort Lauderdale, FL 33314",
    "city": "Fort Lauderdale",
    "state": "FL",
    "zip_code": "33314",
    "phone": null,
    "website": "http://www.breadsandco.com",
    "cuisine_type": "Restaurant",
    "description": "Kosher restaurant certified by ORB",
    "image_url": "",
    "hechsher_details": "ORB Kosher",
    "is_kosher": true,
    "is_glatt": false,
    "is_cholov_yisroel": false,
    "is_pas_yisroel": false,
    "is_bishul_yisroel": false,
    "is_mehadrin": false,
    "is_hechsher": true,
    "rating": 4.0,
    "review_count": 0,
    "price_range": "$$",
    "hours": "Hours vary by location",
    "created_at": "2025-07-30T22:24:52.385246",
    "updated_at": "2025-07-30T22:24:52.385248"
  }
]